{
	"objects": [
		{
			"name": "C. C. Alarico de Souza",
			"address": "Est. Alarico de Souza, 545 - Stª Rosa",
			"geometry": [-43.086548,-22.900784],
			"type": "Creche Comunitária"
		},
		{
			"name": "C. C. Amigos do Jacaré",
			"address": "Est. Frei Orlando, 499- Jacaré",
			"geometry": [-43.044613,-22.912899],
			"type": "Creche Comunitária",
			"aproximate_position": "yes"
		},
		{
			"name": "C. C. Anália Franco",
			"address": "R. Martins Torres, 479 - Stª Rosa",
			"geometry": [-43.088256,-22.898631],
			"type": "Creche Comunitária"
		},
		{
			"name": "C. C. Basílio Neves",
			"address": "R. 4, Lt 13 Q-A – Estrada do Engenho do Mato - Itaipu",
			"geometry": [-42.997266,-22.934446],
			"type": "Creche Comunitária",
			"aproximate_position": "yes"
		},
		{
			"name": "C. C. Betânia",
			"address": "Av. Rui Barbosa, 671/679 - São Francisco",
			"geometry": [-43.079530,-22.912574],
			"type": "Creche Comunitária"
		},
		{
			"name": "C. C. Cafubá",
			"address": "R. Salomão Vergueiro da Cruz,1076 - Cafubá",
			"geometry": [-43.068436,-22.934619],
			"type": "Creche Comunitária"
		},
		{
			"name": "C. C. Cidade dos Menores",
			"address": "R. Nossa Srª das Graças, 474 - Stª Rosa",
			"geometry": [-43.079355,-22.906028],
			"type": "Creche Comunitária"
		},
		{
			"name": "C. C. Criança Esperança",
			"address": "R. João Dalossi-  Trav. 7 e 8 - Vital Brazil",
			"geometry": [-43.093066,-22.907134],
			"type": "Creche Comunitária",
			"aproximate_position": "yes"
		},
		{
			"name": "C. C. Cristo Vive",
			"address": "Trav. Beltrão, 166 fundos - Beltrão",
			"geometry": [-43.085755,-22.902768],
			"type": "Creche Comunitária"
		},
		{
			"name": "C. C. Disp. São Vicente de Paulo",
			"address": "R. Miguel Vieira Ferreira 147 - Icaraí",
			"geometry": [-43.105522,-22.907263],
			"type": "Creche Comunitária",
			"aproximate_position": "yes"
		},
		{
			"name": "C. C. Dom Orione",
			"address": "R. Quintino Boacaiúva, s/nº - São Francisco",
			"geometry": [-43.094640,-22.921815],
			"type": "Creche Comunitária",
			"aproximate_position": "yes"
		},
		{
			"name": "C. C. Ercílio Marques",
			"address": "R. Washington Luiz, R 9, nº 7 LT 17 - Sapê",
			"geometry": [-43.057482,-22.897681],
			"type": "Creche Comunitária",
			"aproximate_position": "yes"
		},
		{
			"name": "C. C. Esperança em Cristo",
			"address": "Av. Francisco da Cruz Nunes, 3003 - Itaipu",
			"geometry": [-43.057167,-22.941846],
			"type": "Creche Comunitária",
			"aproximate_position": "yes"
		},
		{
			"name": "C. C. Instituto Dr. March",
			"address": "R. Desembargador Lima Castro, 235 - Fonseca",
			"geometry": [-43.086295,-22.886693],
			"type": "Creche Comunitária"
		},
		{
			"name": "C. C. Irmã Catarina",
			"address": "Alameda Jandira Fróes, 1037 A - São Francisco",
			"geometry": [-43.097928,-22.913332],
			"type": "Creche Comunitária",
			"aproximate_position": "yes"
		},
		{
			"name": "C. C. Jóias de Cristo",
			"address": "R. XV de Novembro, 179 - Centro",
			"geometry": [-43.119760,-22.896373],
			"type": "Creche Comunitária"
		},
		{
			"name": "C. C. Jurujuba",
			"address": "Av. Carlos Ermelindo Marins, 153 - Jurujuba",
			"geometry": [-43.116373,-22.931793],
			"type": "Creche Comunitária",
			"aproximate_position": "yes"
		},
		{
			"name": "C. C. Kairós",
			"address": "Rua 3 Lt 18 Qd 59 – Engenho do Mato",
			"geometry": [-43.023524,-22.933359],
			"type": "Creche Comunitária",
			"aproximate_position": "yes"
		},
		{
			"name": "C. C. Maceió (Newton Pires Rosa)",
			"address": "R. Prof. Roberto Lira, 09 - Maceió",
			"geometry": [-43.071897,-22.913106],
			"type": "Creche Comunitária",
			"aproximate_position": "yes"
		},
		{
			"name": "C. C. Madre Mary Marcelline",
			"address": "R. Tenente Osório, 30 – Vila Ipiranga - Fonseca",
			"geometry": [-43.091849,-22.878715],
			"type": "Creche Comunitária"
		},
		{
			"name": "C. C. Medalha Milagrosa",
			"address": "Alameda Paris, 56 - Morro do Cavalão - Icaraí",
			"geometry": [-43.101437,-22.911984],
			"type": "Creche Comunitária",
			"aproximate_position": "yes"
		},
		{
			"name": "C. C. Meimei",
			"address": "R. das Graças, Lt 03, Q 166 - Piratininga",
			"geometry": [-43.070393,-22.939155],
			"type": "Creche Comunitária",
			"aproximate_position": "yes"
		},
		{
			"name": "C. C. Minha Querência",
			"address": "R. Demócrito da Cunha Silveira,Lt14 Qd 64 Cafubá",
			"geometry": [-43.073291,-22.931540],
			"type": "Creche Comunitária"
		},
		{
			"name": "C. C. Nossa Senhora Aparecida",
			"address": "R. Jorge Nemmer, nº 03- Ingá",
			"geometry": [-43.127961,-22.904577],
			"type": "Creche Comunitária"
		},
		{
			"name": "C. C. Profª. Clélia Rocha",
			"address": "R. Jean V. Moulliac, 47 – Várzea das Moças",
			"geometry": [-42.988420,-22.904711],
			"type": "Creche Comunitária",
			"aproximate_position": "yes"
		},
		{
			"name": "C. C. Prof. Geraldo C. Albuquerque",
			"address": "R. Gal. Andrade Neves, 307 – São Domingos",
			"geometry": [-43.127572,-22.900274],
			"type": "Creche Comunitária"
		},
		{
			"name": "C. C. Prof. Lenilda Soares Cunha",
			"address": "R. Leonel Brizola, s/nº - Morro do Palácio - Ingá",
			"geometry": [-43.127971,-22.904963],
			"type": "Creche Comunitária"
		},
		{
			"name": "C. C. Rosalda Paim (UFF)",
			"address": "R. Dr. Celestino,78 - Centro",
			"geometry": [-43.116389,-22.895286],
			"type": "Creche Comunitária"
		},
		{
			"name": "C. C. São Lourenço",
			"address": "Prç. Dom Agostinho Benassis, s/nº - Ponto Cem Réis - Fonseca",
			"geometry": [-43.108425,-22.881249],
			"type": "Creche Comunitária"
		},
		{
			"name": "E. M. Adelino Magalhães",
			"address": "R. Dr. Nelson Penna, 17 - Engenhoca",
			"geometry": [-43.094407,-22.874008],
			"type": "Escola Municipal",
			"photos": [
				"EM Adelino Magalhães 1.jpg",
				"EM Adelino Magalhães 2.jpg"
			]
		},
		{
			"name": "E. M. Alberto Brandão",
			"address": "R. Castro Alves, s/nº - Fonseca",
			"geometry": [-43.072603,-22.883301],
			"type": "Escola Municipal",
			"aproximate_position": "yes"
		},
		{
			"name": "E. M. Alberto Francisco Torres",
			"address": "R. Prof. Ismael Coutinho, 88 - Centro",
			"geometry": [-43.117017,-22.895439],
			"type": "Escola Municipal",
			"photos": [
				"EM Alberto Torres 1.jpg",
				"EM Alberto Torres 2.jpg",
				"EM Alberto Torres  3.jpg"
			]
		},
		{
			"name": "E. M. Altivo César",
			"address": "R. Dr. Luiz Palmier, 25 - Barreto",
			"geometry": [-43.099675,-22.864446],
			"type": "Escola Municipal",
			"photos": [
				"EM Altivo Cesar 1.jpg",
				"EM Altivo Cesar 2.jpg",
				"EM Altivo Cesar 3.jpg"
			]
		},
		{
			"name": "E. M. Antonio Coutinho",
			"address": "R. Nestor Perlingeiro, s/nº - Stª Bárbara",
			"geometry": [-43.048667,-22.875587],
			"type": "Escola Municipal",
			"photos": [
				"EM Antonio Coutinho 1.jpg",
				"EM Antonio Coutinho 2.jpg"
			]
		},
		{
			"name": "E. M. Bolívia de Lima Gaétho",
			"address": "Est. Sen. Fernando da Cunha-s/nº-Rio do Ouro",
			"geometry": [-42.994986,-22.898248],
			"type": "Escola Municipal",
			"aproximate_position": "yes"
		},
		{
			"name": "E. M. Demenciano de Moura",
			"address": "Rua Magnólia Brasil, nº 68",
			"geometry": [-43.101910,-22.882505],
			"type": "Escola Municipal",
			"photos": [
				"EM Demenciano 1.jpg",
				"EM Demenciano  2.jpg",
				"EM Demenciano 3.jpg"
			]
		},
		{
			"name": "E. M. Diógenes R. de Mendonça",
			"address": "Est. Caetano Monteiro, s/nº - Penditiba",
			"geometry": [-43.047157,-22.903123],
			"type": "Escola Municipal",
			"aproximate_position": "yes",
			"photos": [
				"EM Diógenes R. Mendonça  1.JPG",
				"EM Diógenes R. Mendonça 2.JPG",
				"EM Diógenes R. Mendonça 3.JPG",
				"EM Diógenes R. Mendonça 4.JPG",
				"EM Diógenes R. Mendonça 5.JPG",
				"EM Diógenes R. Mendonça 6.JPG",
				"EM Diógenes R. Mendonça 7.JPG"
			]
		},
		{
			"name": "E. M. Djalma Coutinho",
			"address": "Rua Cinco de Março, 75 - Fonseca",
			"geometry": [-43.077032,-22.871948],
			"type": "Escola Municipal",
			"photos": [
				"EM Djalma Coutinho  1.jpg",
				"EM Djalma Coutinho  2.jpg"
			]
		},
		{
			"name": "E. M. Dom José Pereira Alves",
			"address": "R. Tenente Osório, 73 - Fonseca",
			"geometry": [-43.092180,-22.878156],
			"type": "Escola Municipal",
			"photos": [
				"EM Dom José  1.jpg",
				"EM Dom José  2.jpg",
				"EM Dom José 3.jpg"
			]
		},
		{
			"name": "E. M. Ernani Moreira Franco",
			"address": "R. Bonfim, s/nº - Fonseca",
			"geometry": [-43.074299,-22.880963],
			"type": "Escola Municipal",
			"photos": [
				"EM Ernani 1.jpg",
				"EM Ernani 2.jpg",
				"EM Ernani 3.jpg"
			]
		},
		{
			"name": "E. M. Eulália da S. Bragança",
			"address": "Est. Frei Orlando, s/nº - Piratininga",
			"geometry": [-43.045318,-22.928976],
			"type": "Escola Municipal",
			"aproximate_position": "yes",
			"photos": [
				"EM Eulália 1.jpg",
				"EM Eulália 2.jpg",
				"EM Eulália 3.jpg"
			]
		},
		{
			"name": "E. M. Felisberto de Carvalho",
			"address": "Est. Caetano Monteiro, 896-Vila Progresso",
			"geometry": [-43.060257,-22.907378],
			"type": "Escola Municipal",
			"aproximate_position": "yes",
			"photos": [
				"EM Felisberto 1.jpg",
				"EM Felisberto 2.jpg"
			]
		},
		{
			"name": "E. M. Francisco Portugal Neves",
			"address": "R. Quatorze, 14 - Piratininga",
			"geometry": [-43.028914,-22.930179],
			"type": "Escola Municipal",
			"aproximate_position": "yes",
			"photos": [
				"EM Francisco Portugal Neves 1.jpg",
				"EM Francisco Portugal Neves 2.jpg",
				"EM Francisco Portugal Neves.jpg",
				"EM Francisco Portugal Neves 4.jpg",
				"EM Francisco Portugal Neves 5.jpg"
			]
		},
		{
			"name": "E. M. Helena Antipoff",
			"address": "Av. Rui Barbosa, 388 - São Francisco",
			"geometry": [-43.085260,-22.917223],
			"type": "Escola Municipal",
			"photos": [
				"EM Helena Antipoff 1.jpg",
				"EM Helena Anipoff 2.jpg",
				"EM Helena Antipoff 3.jpg"
			]
		},
		{
			"name": "E. M. Honorina de Carvalho",
			"address": "R. Prof. José Peçanha, s/nº - Pendotiba",
			"geometry": [-43.026626,-22.882126],
			"type": "Escola Municipal",
			"photos": [
				"EM Honorina 1.jpg",
				"EM Honorina 2.jpg",
				"EM Honorina 6.jpg",
				"EM Honorina Quadra 2 (1).jpg",
				"EM Honorina Quadra 2 (2).jpg",
				"EM Honorina Quadra 2 (3).jpg",
				"EM Honorina Quadra 2 (4).jpg",
				"EM Honorina Quadra 2 (5).jpg"
			]
		},
		{
			"name": "E. M. Horácio Pacheco",
			"address": "Av. Celso Peçanha, s/nº - Cantagalo",
			"geometry": [-43.081547,-22.906300],
			"type": "Escola Municipal",
			"aproximate_position": "yes",
			"photos": [
				"EM Infante  Quadra 1(1).jpg",
				"EM Infante Quadra 1 (2).jpg",
				"EM Infante Quadra 1 (3).jpg",
				"EM Infante Quadra 2( 1).JPG",
				"EM Infante Quadra 2 (2).JPG",
				"EM Infante Quadra 2 (3).JPG",
				"EM Infante Quadra 2 (4).JPG"
			]
		},
		{
			"name": "E. M. Infante Dom Henrique",
			"address": "R. Prof. João Brasil, 2000 - Engenhoca",
			"geometry": [-43.089540,-22.866511],
			"type": "Escola Municipal"
		},
		{
			"name": "E. M. Jacinta Medela",
			"address": "R. Tenente Osório, 10 - Fonseca",
			"geometry": [-43.091830,-22.879007],
			"type": "Escola Municipal",
			"photos": [
				"EM Jacinta Medela 1.jpg",
				"EM Jacinta Medela 2.jpg",
				"EM Jacinta Medela 3.jpg",
				"EM Jacinta Medela 5.jpg"
			]
		},
		{
			"name": "E. M. Julia Cortines",
			"address": "R. Lopes Trovão, s/nº - Icaraí",
			"geometry": [-43.108791,-22.904382],
			"type": "Escola Municipal",
			"photos": [
				"EM Julia Cortines 1.jpg",
				"EM Julia Cortines 2.jpg"
			]
		},
		{
			"name": "E. M. Levi Carneiro",
			"address": "Estrada do Sapê, 488 - Pendotiba",
			"geometry": [-43.062884,-22.899553],
			"type": "Escola Municipal",
			"aproximate_position": "yes",
			"photos": [
				"EM Levi 1.jpg",
				"EM Levi 2.jpg",
				"EM Levi 3.jpg"
			]
		},
		{
			"name": "E. M. Lucia Mª Silveira da Rocha",
			"address": "R. Carlos Ermelindo Marins, 34 - Jurujuba",
			"geometry": [-43.116443,-22.932324],
			"type": "Escola Municipal",
			"photos": [
				"EM Lucia Maria 1.jpg",
				"EM Lucia Maria  2.jpg",
				"EM Lucia Maria  3.jpg",
				"EM Lucia Maria  4.jpg"
			]
		},
		{
			"name": "E. M. Mª Ângela Moreira Pinto",
			"address": "R. Tupiniquis, 392 - São Francisco",
			"geometry": [-43.089881,-22.921588],
			"type": "Escola Municipal",
			"aproximate_position": "yes",
			"photos": [
				"EM Maria Ângela 1.jpg",
				"EM Maria Ângela 2.jpg"
			]
		},
		{
			"name": "E. M. Mª de Lourdes Barbosa Santos",
			"address": "Rua Leite Ribeiro, nº 120 - Fonseca",
			"geometry": [-43.094245,-22.884010],
			"type": "Escola Municipal",
			"photos": [
				"EM Maria de Lourdes 1.jpg",
				"EM Maria de Lourdes 2.jpg",
				"EM Maria de Lourdes 3.jpg"
			]
		},
		{
			"name": "E. M. Maestro H. Villa Lobos",
			"address": "R. Salo Brand, s/nº - Ilha da Conceição",
			"geometry": [-43.115713,-22.872977],
			"type": "Escola Municipal",
			"photos": [
				"EM Heitor Villa Lobo 1.jpg",
				"EM Heitor Villa Lobo 2.jpg",
				"EM Heitor Villa Lobo 3.jpg",
				"EM Heitor Villa Lobo 4.jpg"
			]
		},
		{
			"name": "E. M. Mestra Fininha",
			"address": "R. Dr. Luiz Palmier, 100 - Barreto",
			"geometry": [-43.098574,-22.864589],
			"type": "Escola Municipal",
			"photos": [
				"EM Mestra Fininha 1.jpg",
				"EM Mestra Fininha 2.jpg",
				"EM Mestra Fininha 3.jpg"
			]
		},
		{
			"name": "E. M. Noronha Santos",
			"address": "R. Henrique Lage, 184 - Fonseca",
			"geometry": [-43.082583,-22.870884],
			"type": "Escola Municipal",
			"aproximate_position": "yes",
			"photos": [
				"EM Noronha Santos 1.jpg",
				"EM Noronha Santos 2.jpg",
				"EM Noronha Santos 3.jpg",
				"EM Noronha Santos 4.jpg",
				"EM Noronha Santos 5.jpg",
				"EM Noronha Santos 6.jpg",
				"EM Noronha Santos 7.jpg"
			]
		},
		{
			"name": "E. M. Nossa Senhora da Penha",
			"address": "Lad. Major Rocha, s/nº - Ponta da Areia",
			"geometry": [-43.123779,-22.879740],
			"type": "Escola Municipal",
			"aproximate_position": "yes",
			"photos": [
				"EM Nossa Senhora da Penha 1.jpg",
				"EM Nossa Senhora da Penha 2.jpg"
			]
		},
		{
			"name": "E. M. Padre Leonel Franca",
			"address": "Rua Santos Moreira, 58",
			"geometry": [-43.090998,-22.903661],
			"type": "Escola Municipal",
			"photos": [
				"EM Padre Leonel 1.jpg",
				"EM Padre Leonel 2.jpg",
				"EM Padre Leonel 3.jpg",
				"EM Padre Leonel 4.jpg",
				"EM Padre Leonel 5.jpg",
				"EM Padre Leonel 6.jpg"
			]
		},
		{
			"name": "E. M. Paulo de Almeida Campos",
			"address": "R. Gal. Pereira da Silva, 50 - Icaraí",
			"geometry": [-43.113138,-22.904631],
			"type": "Escola Municipal",
			"photos": [
				"EM Paulo de Almeida 1.jpg",
				"EM Paulo de Almeida 2.bmp",
				"EM Paulo de Almeida 3.bmp"
			]
		},
		{
			"name": "E. M. Paulo Freire",
			"address": "R. Soares de Miranda, 77 - Fonseca",
			"geometry": [-43.082554,-22.882926],
			"type": "Escola Municipal",
			"photos": [
				"EM Paulo Freire Quadra 1 (1).jpg",
				"EM Paulo Freire Quadra 1(2).jpg",
				"EM Paulo Freire Quadra 1(3).jpg",
				"EM Paulo Freire Quadra 2 (1).jpg",
				"EM Paulo Freire Quadra 2(2).jpg",
				"EM Paulo Freire Quadra 2 (3).jpg"
			]
		},
		{
			"name": "E. M. Profº André Trouche",
			"address": "R. Dr. Luiz Palmier, 100 - Barreto",
			"geometry": [-43.098960,-22.864853],
			"type": "Escola Municipal",
			"photos": [
				"EM Andre Trouche 1.jpg",
				"EM Andre Trouche 2.jpg"
			]
		},
		{
			"name": "E. M. Profº Oswaldo Salles Lima",
			"address": "Rua São Pedro, 108 - Centro",
			"geometry": [-43.120849,-22.892114],
			"type": "Escola Municipal"
		},
		{
			"name": "E. M. Profª Elvira Lúcia E. de Vasconcelos",
			"address": "Trav. Emílio Andrada, 2 - Icaraí",
			"geometry": [-43.102882,-22.911129],
			"type": "Escola Municipal",
			"aproximate_position": "yes",
			"photos": [
				"EM Elvira Maria 1.jpg",
				"EM Elvira Maria 2.jpg",
				"EM Elvira Maria 3.jpg",
				"EM Elvira Maria 4.jpg",
				"EM Elvira Maria 5.jpg",
				"EM Elvira Maria 6.jpg",
				"EM Elvira Maria 7.jpg",
				"EM Elvira Maria  1.jpg"
			]
		},
		{
			"name": "E. M. Rachide da Glória Salim Saker",
			"address": "R. Jandira Pereira, 620/623 - Stª Bárbara",
			"geometry": [-43.053900,-22.875599],
			"type": "Escola Municipal",
			"aproximate_position": "yes",
			"photos": [
				"EM Rachide 1.jpg",
				"EM Rachide 2.jpg"
			]
		},
		{
			"name": "E. M. Santos Dumont",
			"address": "R. Manoel Corrêa, s/nº - Bairro de Fátima",
			"geometry": [-43.109346,-22.895454],
			"type": "Escola Municipal",
			"photos": [
				"EM Santos Dumont 1.jpg",
				"EM Santos Dumont 2.jpg",
				"EM Santos Dumont 3.jpg"
			]
		},
		{
			"name": "E. M. Sebastiana Gonçalves Pinho",
			"address": "Est. Viçoso Jardim, s/nº-Viçoso Jardim",
			"geometry": [-43.081226,-22.894454],
			"type": "Escola Municipal",
			"aproximate_position": "yes",
			"photos": [
				"EM Sebastiana 1.jpg",
				"EM Sebastiana 2.jpg",
				"EM Sebastiana 3.jpg",
				"EM Sebastiana 4.jpg",
				"EM Sebastiana 5.jpg",
				"EM Sebastiana 6.jpg"
			]
		},
		{
			"name": "E. M. Sítio do Ipê",
			"address": "R. Prof. José Peçanha, s/nº - L. Rem. Verde",
			"geometry": [-43.026895,-22.881908],
			"type": "Escola Municipal",
			"photos": [
				"EM Sitio 1.jpg",
				"EM Sitio 2.jpg"
			]
		},
		{
			"name": "E. M. Tiradentes",
			"address": "R. Dr. March, 628 - Tenente Jardim",
			"geometry": [-43.080321,-22.864775],
			"type": "Escola Municipal",
			"aproximate_position": "yes",
			"photos": [
				"EM Tiradentes 1.jpg",
				"EM Tiradentes 2.jpg",
				"EM Tiradentes 3.jpg"
			]
		},
		{
			"name": "NAEI Vila Ipiranga",
			"address": "R. Tenente Osório,73 - Fonseca",
			"geometry": [-43.092169,-22.878232],
			"type": "Núcleo Avançado de Educação Infantil"
		},
		{
			"name": "UMEI Alberto de Oliveira",
			"address": "R. Evaristo da Veiga, 108 - Centro",
			"geometry": [-43.115958,-22.892929],
			"type": "Unidade Municipal de Educação Infantil"
		},
		{
			"name": "UMEI Antonio Vieira da Rocha",
			"address": "R. Araújo Pimenta, s/nº - Morro da Estado",
			"geometry": [-43.120654,-22.899944],
			"type": "Unidade Municipal de Educação Infantil",
			"aproximate_position": "yes"
		},
		{
			"name": "UMEI Elenir Ramos Meirelles",
			"address": "R. das Flores, 99 - Badu",
			"geometry": [-43.052750,-22.900560],
			"type": "Unidade Municipal de Educação Infantil",
			"aproximate_position": "yes"
		},
		{
			"name": "UMEI G. M. Bezerra de Menezes",
			"address": "Rua Mário Vianna, 589 - Santa Rosa",
			"geometry": [-43.090545,-22.905044],
			"type": "Unidade Municipal de Educação Infantil"
		},
		{
			"name": "UMEI Gabriela Mistral",
			"address": "Est. Caetano Monteiro, 820 - Pendotiba",
			"geometry": [-43.060171,-22.907468],
			"type": "Unidade Municipal de Educação Infantil",
			"aproximate_position": "yes"
		},
		{
			"name": "UMEI Hermógenes Reis",
			"address": "R. Nestor Perlingeiro, s/nº - Stª Bárbara",
			"geometry": [-43.047881,-22.877118],
			"type": "Unidade Municipal de Educação Infantil",
			"aproximate_position": "yes"
		},
		{
			"name": "UMEI Hilka de Araujo Peçanha",
			"address": "Rua Itaguaí, 148 - Santa Rosa",
			"geometry": [-43.102574,-22.896902],
			"type": "Unidade Municipal de Educação Infantil"
		},
		{
			"name": "UMEI Iguatemi Coquinot",
			"address": "R. Orêncio de Freitas, s/nº - Morro dos Marítimos",
			"geometry": [-43.094982,-22.864901],
			"type": "Unidade Municipal de Educação Infantil"
		},
		{
			"name": "UMEI Julieta Botelho",
			"address": "Alam. São Boaventura, 30 - Fonseca",
			"geometry": [-43.108507,-22.880467],
			"type": "Unidade Municipal de Educação Infantil"
		},
		{
			"name": "UMEI Lisaura Machado Ruas",
			"address": "R. Arthur Bento Moura, 79 - Badu",
			"geometry": [-43.061212,-22.904633],
			"type": "Unidade Municipal de Educação Infantil",
			"aproximate_position": "yes"
		},
		{
			"name": "UMEI Lizete Maciel",
			"address": "Estrada Frei Orlando, 325 - Jacaré",
			"geometry": [-43.031204,-22.923185],
			"type": "Unidade Municipal de Educação Infantil",
			"aproximate_position": "yes"
		},
		{
			"name": "UMEI Luiz Eduardo Travassos",
			"address": "R. A, 80 - Caramujo",
			"geometry": [-43.067586,-22.891437],
			"type": "Unidade Municipal de Educação Infantil",
			"aproximate_position": "yes"
		},
		{
			"name": "UMEI Margareth Flores",
			"address": "Rua Albino Pereira, altura do nº 398 – São Francisco",
			"geometry": [-43.075161,-22.907712],
			"type": "Unidade Municipal de Educação Infantil",
			"aproximate_position": "yes"
		},
		{
			"name": "UMEI Maria José B. Mansur",
			"address": "Rua Magnólia Brasil, nº 68",
			"geometry": [-43.102022,-22.882510],
			"type": "Unidade Municipal de Educação Infantil"
		},
		{
			"name": "UMEI Maria Luiza Sampaio",
			"address": "R. São Caetano, 30 - Charitas",
			"geometry": [-43.096519,-22.931669],
			"type": "Unidade Municipal de Educação Infantil"
		},
		{
			"name": "UMEI Neuza Brizola",
			"address": "R. Prof. João Brazil, 1960 - Engenhoca",
			"geometry": [-43.089653,-22.866618],
			"type": "Unidade Municipal de Educação Infantil"
		},
		{
			"name": "UMEI Odete Rosa da Mota",
			"address": "R. Dr. Cícero Barreto 39 (antiga R. 30) - Itaipu",
			"geometry": [-43.022088,-22.936107],
			"type": "Unidade Municipal de Educação Infantil",
			"aproximate_position": "yes"
		},
		{
			"name": "UMEI Piratininga",
			"address": "R. Acúrcio Torres, quadra 6 - Piratininga",
			"geometry": [-43.094130,-22.950968],
			"type": "Unidade Municipal de Educação Infantil",
			"aproximate_position": "yes"
		},
		{
			"name": "UMEI Portugal Pequeno",
			"address": "R. Visconde de Itaboraí, 20 - Ponta da Areia",
			"geometry": [-43.122951,-22.882051],
			"type": "Unidade Municipal de Educação Infantil"
		},
		{
			"name": "UMEI Profº Írio Molinari",
			"address": "R. Jornalista Sardo Filho, 255 - Ilha da Conceição",
			"geometry": [-43.116516,-22.873031],
			"type": "Unidade Municipal de Educação Infantil",
			"aproximate_position": "yes"
		},
		{
			"name": "UMEI Profº Nilo Neves",
			"address": "R. Silveira da Mota, s/nº - Boa Vista",
			"geometry": [-43.107500,-22.886929],
			"type": "Unidade Municipal de Educação Infantil"
		},
		{
			"name": "UMEI Profª Áurea Trindade Pimentel de Menezes",
			"address": "Rua Cícero Barreto, 39 – Itaipu (Antiga rua 13)",
			"geometry": [-43.021805,-22.936465],
			"type": "Unidade Municipal de Educação Infantil",
			"aproximate_position": "yes"
		},
		{
			"name": "UMEI Profª Denise Mendes Cardia",
			"address": "R. José Bonifácio, 56 - São Domingos",
			"geometry": [-43.128739,-22.900306],
			"type": "Unidade Municipal de Educação Infantil"
		},
		{
			"name": "UMEI Profª Marilza da Conceição Rocha Medina",
			"address": "Rua Dr. Conrado Barbosa de Souza, s/n - Fonseca",
			"geometry": [-43.097266,-22.878180],
			"type": "Unidade Municipal de Educação Infantil",
			"aproximate_position": "yes"
		},
		{
			"name": "UMEI Renata Magaldi",
			"address": "Trav. Aires Lemos, s/nº - Fonseca",
			"geometry": [-43.077616,-22.877896],
			"type": "Unidade Municipal de Educação Infantil"
		},
		{
			"name": "UMEI Rosalina de Araújo",
			"address": "R. Galvão, 193 - Barreto",
			"geometry": [-43.100122,-22.864662],
			"type": "Unidade Municipal de Educação Infantil"
		},
		{
			"name": "UMEI Sen. Vasconcelos Torres",
			"address": "Rua Santa Rosa, 157 - Santa Rosa",
			"geometry": [-43.100597,-22.900786],
			"type": "Unidade Municipal de Educação Infantil"
		}
	]
}
